places = [
{"descrip":"Mahane Yehuda Market","latitude":31.784863,"longitude":35.212523,"placeName":"Market"},
{"descrip":"My Appartment in Isreal","latitude":31.786665,"longitude":35.212375,"placeName":"House"},
{"descrip":"The Jerusalem Post Building","latitude":31.787676,"longitude":35.207553,"placeName":"Work"},
{"descrip":"Sacher Park ","latitude":31.781104,"longitude":35.207829,"placeName":"Park"},
{"descrip":"VIP Gym","latitude":31.782644,"longitude":35.218133,"placeName":"Gym"},
{"descrip":"Central Bus Station","latitude":31.788737,"longitude":35.202729,"placeName":"Bus"},
{"descrip":"Jerusalem Beach","latitude":32.074512,"longitude":34.764402,"placeName":"Beach"},
{"descrip":"Tel Aviv","latitude":32.068478,"longitude":34.764512,"placeName":"Tel Aviv"},
{"descrip":"Bahá’í Gardens","latitude":32.812313,"longitude":34.985677,"placeName":"Gardens"},
{"descrip":"Seafront in Akko/Acre","latitude":32.922618,"longitude":35.066962,"placeName":"Akko"},
{"descrip":"The Dead Sea","latitude":31.608478,"longitude":35.410807,"placeName":"Dead Sea"},
{"descrip":"Western Wall","latitude":31.776606,"longitude":35.234461,"placeName":"Wall"},
{"descrip":"The Israel Museum","latitude":31.772078,"longitude":35.204069,"placeName":"Museum"},
{"descrip":" Ben and Jerry's Ice Cream Factory in Be’er Tuviya","latitude":31.715118,"longitude":34.738329,"placeName":"Icecream"},
{"descrip":"West Bank, Judea and Samaria","latitude":31.928055,"longitude":35.334245,"placeName":"Westbank"},
{"descrip":"Ein Gedi","latitude":31.450852,"longitude":35.382546,"placeName":"Oasis"},
{"descrip":"Be'er Sheva","latitude":31.249399,"longitude":34.791226,"placeName":"Beersheba"},
{"descrip":" Tiberias by the Sea of Galilee","latitude":32.795968,"longitude":35.537984,"placeName":"Tiberias"},
{"descrip":"Golan Heights Winery","latitude":32.992028,"longitude":35.709531,"placeName":"Winery"},
{"descrip":"Parliament of Israel","latitude":31.778704,"longitude":35.206256,"placeName":"Knesset"}]
